City_ID,City,Lat,Lng,Max Temp,Humidity,Cloudiness,Wind Speed,Country,Date
0,killarney,52.05,-9.5167,7.9,96,100,3.2,IE,1680577947
1,padang,-0.9492,100.3543,29.03,67,82,1.44,ID,1680577947
2,rikitea,-23.1203,-134.9692,26.46,82,99,6.48,PF,1680577854
3,nanortalik,60.1432,-45.2371,-0.94,85,97,0.78,GL,1680577948
4,ahipara,-35.1667,173.1667,19.59,57,1,5.34,NZ,1680577948
5,bredasdorp,-34.5322,20.0403,14.76,86,92,1.08,ZA,1680577948
6,shediac,46.2198,-64.5411,1.87,86,75,5.14,CA,1680577949
7,severnoye,56.3491,78.3619,-0.13,78,89,2.64,RU,1680577950
8,ranfurly,-45.1333,170.1,17.84,62,17,1.25,NZ,1680577951
9,qaanaaq,77.484,-69.3632,-23.63,60,0,2.93,GL,1680577951
10,mataura,-46.1927,168.8643,14.71,56,61,1.61,NZ,1680577951
11,isla mujeres,21.2311,-86.731,27.03,82,83,5.74,MX,1680577951
12,cherskiy,68.75,161.3,-13.38,72,96,7.12,RU,1680577952
13,te anau,-45.4167,167.7167,18.15,48,26,1.93,NZ,1680577952
14,nikolskoye,59.7035,30.7861,-1.78,97,100,3.02,RU,1680577952
15,provideniya,64.3833,-173.3,-12.94,66,40,5.0,RU,1680577952
16,jamestown,42.097,-79.2353,10.29,85,100,2.24,US,1680577891
17,port elizabeth,-33.918,25.5701,17.95,82,77,1.34,ZA,1680577953
18,tuktoyaktuk,69.4541,-133.0374,-20.75,100,43,3.2,CA,1680577953
19,kavieng,-2.5744,150.7967,28.38,72,16,1.03,PG,1680577954
20,san patricio,28.017,-97.5169,25.5,79,100,7.78,US,1680577954
21,lakatoro,-16.0999,167.4164,29.94,63,30,5.14,VU,1680577954
22,albany,42.6001,-73.9662,11.23,63,100,1.91,US,1680577954
23,yellowknife,62.456,-114.3525,-11.88,96,99,1.71,CA,1680577829
24,ust-uda,54.1742,103.0304,-0.13,55,100,4.47,RU,1680577954
25,kousseri,12.0769,15.0306,26.78,23,47,3.76,CM,1680577954
26,ushuaia,-54.8,-68.3,6.81,81,20,3.6,AR,1680577860
27,oppdal,62.5943,9.6912,-5.42,81,68,2.37,NO,1680577955
28,sola,-13.8833,167.55,28.38,73,75,7.01,VU,1680577955
29,esso,55.9333,158.7,-3.42,75,68,1.73,RU,1680577955
30,qaqortoq,60.7167,-46.0333,-1.84,79,96,1.8,GL,1680577956
31,kruisfontein,-34.0033,24.7314,16.6,81,78,3.75,ZA,1680577956
32,arraial do cabo,-22.9661,-42.0278,23.91,75,100,4.69,BR,1680577956
33,nisia floresta,-6.0911,-35.2086,25.45,90,76,2.57,BR,1680577956
34,berlevag,70.8578,29.0864,1.0,80,92,8.75,NO,1680577956
35,avarua,-21.2078,-159.775,27.03,61,53,3.6,CK,1680577957
36,bluff,-46.6,168.3333,14.89,72,83,5.46,NZ,1680577957
37,bathsheba,13.2167,-59.5167,26.34,73,40,6.69,BB,1680577957
38,ibra,22.6906,58.5334,21.88,31,52,1.26,OM,1680577957
39,port alfred,-33.5906,26.891,18.96,77,99,6.58,ZA,1680577957
40,longyearbyen,78.2186,15.6401,-15.09,61,20,6.69,SJ,1680577919
41,hithadhoo,-0.6,73.0833,28.11,69,51,3.78,MV,1680577957
42,maceio,-9.6658,-35.7353,24.69,94,0,1.54,BR,1680577957
43,hermanus,-34.4187,19.2345,16.02,81,98,2.13,ZA,1680577957
44,busselton,-33.65,115.3333,21.27,46,35,4.2,AU,1680577957
45,vaini,-21.2,-175.2,28.09,74,20,4.63,TO,1680577958
46,cayenne,4.9333,-52.3333,25.02,83,40,2.57,GF,1680577767
47,roald,62.5833,6.1333,4.31,100,100,1.54,NO,1680577958
48,east london,-33.0153,27.9116,19.51,68,82,7.63,ZA,1680577958
49,itoman,26.1247,127.6694,25.01,50,20,10.8,JP,1680577958
50,hobart,-42.8794,147.3294,21.81,49,20,7.72,AU,1680577958
51,lasa,46.6166,10.7002,-1.28,73,24,2.99,IT,1680577958
52,auki,-8.7676,160.7034,30.72,64,99,1.11,SB,1680577849
53,lorengau,-2.0226,147.2712,30.1,63,17,2.59,PG,1680577958
54,lebu,-37.6167,-73.65,11.98,78,1,7.05,CL,1680577958
55,sept-iles,50.2001,-66.3821,-2.75,91,100,0.45,CA,1680577958
56,doha,25.2867,51.5333,19.99,60,0,5.66,QA,1680577715
57,erenhot,43.6475,111.9767,2.52,33,100,8.23,CN,1680577958
58,vardo,70.3705,31.1107,-0.22,85,100,7.62,NO,1680577958
59,atuona,-9.8,-139.0333,27.27,75,54,5.42,PF,1680577959
60,sitka,57.0531,-135.33,5.94,61,0,2.06,US,1680577959
61,punta arenas,-53.15,-70.9167,5.06,75,0,5.14,CL,1680577959
62,sao filipe,14.8961,-24.4956,23.89,71,82,3.82,CV,1680577959
63,dingle,10.9995,122.6711,31.38,54,63,5.07,PH,1680577959
64,ketchikan,55.3422,-131.6461,5.99,70,0,1.54,US,1680577959
65,souillac,-20.5167,57.5167,23.21,100,20,1.54,MU,1680577959
66,saint-philippe,-21.3585,55.7679,24.77,78,98,2.15,RE,1680577959
67,port lincoln,-34.7333,135.8667,23.81,38,8,1.58,AU,1680577959
68,saskylakh,71.9167,114.0833,-21.34,93,98,6.56,RU,1680577959
69,tondano,1.3038,124.9112,24.05,70,98,1.75,ID,1680577959
70,morondava,-20.2833,44.2833,23.98,93,15,2.44,MG,1680577959
71,reyes,-14.3167,-67.3833,22.07,99,85,0.58,BO,1680577959
72,corinto,37.9407,22.9573,12.16,83,99,0.91,GR,1680577822
73,kichera,55.9375,110.0997,-6.72,91,100,4.41,RU,1680577960
74,castro,-24.7911,-50.0119,14.64,88,1,1.39,BR,1680577960
75,pombas,17.1503,-25.0201,21.88,78,60,5.01,CV,1680577960
76,kapaa,22.0752,-159.319,26.99,89,40,4.63,US,1680577960
77,tenenkou,14.4572,-4.9169,26.38,9,0,3.67,ML,1680577960
78,cape town,-33.9258,18.4232,17.99,84,98,1.78,ZA,1680577873
79,barabai,-2.5833,115.3833,28.41,75,100,0.35,ID,1680577661
80,mayo,38.8876,-76.5119,16.72,80,0,5.14,US,1680577692
81,fukue,32.6881,128.8419,17.86,69,100,9.63,JP,1680577960
82,bukama,-9.2,25.85,19.78,99,100,0.12,CD,1680577960
83,maniitsoq,65.4167,-52.9,-3.38,60,16,3.32,GL,1680577960
84,egvekinot,66.3167,-179.1667,-19.02,78,17,1.09,RU,1680577960
85,freeport,40.6576,-73.5832,11.99,83,0,5.14,US,1680577725
86,jumla,29.2747,82.1838,11.55,55,10,1.17,NP,1680577961
87,henties bay,-22.116,14.2845,15.9,89,0,3.89,NA,1680577961
88,cap malheureux,-19.9842,57.6142,24.15,82,85,0.89,MU,1680577961
89,verkh-usugli,52.7,115.1667,-2.6,38,6,4.82,RU,1680577961
90,sao joao da barra,-21.6403,-41.0511,22.24,87,96,2.63,BR,1680577961
91,kodiak,57.79,-152.4072,1.73,93,100,5.14,US,1680577961
92,numata,36.6333,139.05,18.54,19,3,2.16,JP,1680577961
93,fortuna,40.5982,-124.1573,7.59,78,41,3.51,US,1680577961
94,tiksi,71.6872,128.8694,-6.76,84,100,2.42,RU,1680577961
95,illela,13.7292,5.2975,26.38,9,54,2.78,NG,1680577693
96,kuito,-12.3833,16.9333,13.91,97,79,1.37,AO,1680577962
97,cuamba,-14.8031,36.5372,17.5,97,10,0.79,MZ,1680577962
98,thompson,55.7435,-97.8558,-17.83,99,98,1.25,CA,1680577898
99,sioux lookout,50.1001,-91.917,-8.55,89,100,3.52,CA,1680577962
100,torbay,47.6666,-52.7314,-0.79,83,5,3.13,CA,1680577962
101,trairi,-3.2778,-39.2689,23.09,94,100,1.09,BR,1680577754
102,tazovskiy,67.4667,78.7,-12.89,91,100,10.86,RU,1680577962
103,ondjiva,-17.0667,15.7333,19.17,67,73,2.64,AO,1680577962
104,shingu,33.7333,135.9833,17.19,62,84,2.63,JP,1680577962
105,raga,8.4596,25.678,23.05,20,30,0.26,SS,1680577962
106,guanica,17.9716,-66.908,24.47,76,0,3.78,PR,1680577962
107,bengkulu,-3.8004,102.2655,27.77,72,80,1.26,ID,1680577963
108,sucre,-19.0333,-65.2627,13.86,66,98,1.46,BO,1680577963
109,cairns,-16.9167,145.7667,35.04,74,80,4.63,AU,1680577963
110,georgetown,5.4112,100.3354,29.97,74,20,1.03,MY,1680577867
111,andenes,69.3143,16.1194,2.99,75,100,6.17,NO,1680577963
112,kollam,8.8833,76.6,26.97,78,79,3.36,IN,1680577963
113,hilo,19.7297,-155.09,24.85,77,75,1.54,US,1680577872
114,verkhoyansk,67.5447,133.385,-10.27,78,100,1.03,RU,1680577963
115,mollendo,-17.0231,-72.0147,24.3,80,14,0.97,PE,1680577963
116,esperance,-33.8667,121.9,20.42,70,94,5.9,AU,1680577871
117,puertollano,38.6871,-4.1073,10.09,39,98,1.36,ES,1680577963
118,mountain home,43.133,-115.6912,1.9,71,40,8.23,US,1680577963
119,ambatofinandrahana,-20.55,46.8,14.84,97,17,1.12,MG,1680577963
120,tuy hoa,13.0833,109.3,31.08,61,13,2.77,VN,1680577964
121,airai,-8.9266,125.4092,22.66,58,89,1.0,TL,1680577964
122,dikson,73.5069,80.5464,-20.55,97,100,5.51,RU,1680577964
123,tura,25.5198,90.2201,24.54,60,6,2.94,IN,1680577964
124,marawi,7.9986,124.2928,26.34,53,84,2.55,PH,1680577964
125,saint george,37.1041,-113.5841,4.68,68,100,3.6,US,1680577964
126,buala,-8.145,159.5921,28.48,75,100,2.73,SB,1680577964
127,malpe,13.35,74.7167,26.61,64,23,0.82,IN,1680577964
128,plouzane,48.3833,-4.6167,5.03,93,7,2.57,FR,1680577964
129,flin flon,54.7682,-101.865,-15.87,97,96,1.92,CA,1680577964
130,new norfolk,-42.7826,147.0587,21.62,39,36,2.65,AU,1680577964
131,hofn,64.2539,-15.2082,7.64,93,100,8.37,IS,1680577964
132,manicore,-5.8092,-61.3003,22.26,96,71,0.78,BR,1680577964
133,olafsvik,64.8945,-23.7142,6.23,97,100,9.22,IS,1680577964
134,aguimes,27.9054,-15.4461,17.35,68,75,11.32,ES,1680577965
135,show low,34.2542,-110.0298,10.16,29,0,12.35,US,1680577862
136,ndola,-12.9587,28.6366,16.94,97,100,2.0,ZM,1680577965
137,deputatskiy,69.3,139.9,-11.1,90,79,1.74,RU,1680577965
138,caravelas,-17.7125,-39.2481,24.84,74,100,3.62,BR,1680577965
139,puerto ayora,-0.7393,-90.3518,26.97,92,21,0.45,EC,1680577965
140,mount isa,-20.7333,139.5,31.87,18,61,5.14,AU,1680577965
141,cuiluan,47.72,128.648,4.83,20,8,6.64,CN,1680577965
142,vavuniya,8.7514,80.4971,27.42,74,4,1.61,LK,1680577965
143,palmer,42.1584,-72.3287,8.65,69,40,3.6,US,1680577965
144,okhotsk,59.3833,143.3,-6.22,89,100,10.2,RU,1680577966
145,haines junction,60.7522,-137.5108,-5.07,86,41,1.72,CA,1680577966
146,havelock,34.8791,-76.9013,19.41,88,100,3.09,US,1680577966
147,codrington,-38.2667,141.9667,18.95,58,100,3.42,AU,1680577966
148,chokurdakh,70.6333,147.9167,-11.73,90,22,2.96,RU,1680577966
149,cabo san lucas,22.8909,-109.9124,26.61,68,75,5.14,MX,1680577919
150,butaritari,3.0707,172.7902,27.73,81,79,8.02,KI,1680577966
151,saldanha,-33.0117,17.9442,15.78,93,100,3.24,ZA,1680577919
152,los llanos de aridane,28.6585,-17.9182,17.86,89,100,7.2,ES,1680577966
153,hasaki,35.7333,140.8333,16.22,51,0,4.88,JP,1680577966
154,ixtapa,20.7,-105.2,23.46,83,0,0.0,MX,1680577966
155,namie,37.4833,141.0,20.95,52,0,2.8,JP,1680577966
156,ziyang,29.2497,117.8547,17.81,99,100,1.35,CN,1680577966
157,nemuro,43.3236,145.575,4.66,69,95,7.24,JP,1680577967
158,tuatapere,-46.1333,167.6833,17.57,56,68,1.53,NZ,1680577967
159,nelson bay,-32.7167,152.15,23.03,85,100,1.34,AU,1680577967
160,ribeira grande,38.5167,-28.7,12.1,82,100,2.24,PT,1680577967
161,rorvik,64.8621,11.2373,2.06,100,100,2.57,NO,1680577967
162,bilma,18.6853,12.9164,23.94,8,91,3.0,NE,1680577967
163,riyadh,24.6877,46.7219,13.08,22,76,0.77,SA,1680577967
164,rusape,-18.5278,32.1284,13.21,94,22,0.94,ZW,1680577967
165,cidreira,-30.1811,-50.2056,21.94,81,16,6.13,BR,1680577967
166,monte patria,-30.6919,-70.9467,21.62,49,100,0.65,CL,1680577967
167,nome,64.5011,-165.4064,-8.96,73,100,4.12,US,1680577968
168,zyryanka,65.75,150.85,-8.9,73,21,6.8,RU,1680577968
169,sweetwater,25.7634,-80.3731,26.01,82,20,3.09,US,1680577968
170,mecca,21.4267,39.8261,22.33,42,71,1.04,SA,1680577786
171,chuy,-33.6971,-53.4616,16.33,89,100,1.03,UY,1680577968
172,port blair,11.6667,92.75,28.57,63,100,1.96,IN,1680577968
173,cockburn town,21.4612,-71.1419,25.2,73,0,9.18,TC,1680577968
174,mahanoro,-19.9,48.8,23.81,91,98,1.29,MG,1680577968
175,taltal,-25.4,-70.4833,21.02,85,45,1.4,CL,1680577968
176,juneau,58.3019,-134.4197,4.56,74,75,2.57,US,1680577968
177,klaksvik,62.2266,-6.589,7.51,95,100,11.44,FO,1680577968
178,evensk,61.95,159.2333,-11.34,65,2,1.39,RU,1680577968
179,petrovskoye,57.0104,39.2693,5.12,94,100,2.3,RU,1680577969
180,izumo,35.3667,132.7667,19.34,36,94,0.63,JP,1680577969
181,annau,37.8876,58.516,9.48,71,56,0.66,TM,1680577969
182,faanui,-16.4833,-151.75,28.23,72,99,3.65,PF,1680577969
183,victoria,22.2855,114.1577,28.02,90,53,0.89,HK,1680577817
184,ozernovskiy,51.5,156.5167,-0.75,79,6,3.9,RU,1680577969
185,coquimbo,-29.9533,-71.3436,14.85,100,0,1.54,CL,1680577969
186,isangel,-19.55,169.2667,29.77,66,66,2.18,VU,1680577969
187,katsuura,35.1333,140.3,15.32,49,0,4.91,JP,1680577969
188,at-bashi,41.1702,75.8106,1.65,38,90,1.88,KG,1680577969
189,margate,51.3813,1.3862,6.06,66,12,1.79,GB,1680577969
190,caetite,-14.0694,-42.475,18.06,93,89,3.42,BR,1680577969
191,kieta,-6.2167,155.6333,29.44,71,57,2.54,PG,1680577970
192,bintulu,3.1667,113.0333,28.5,69,81,1.39,MY,1680577970
193,fenoarivo,-18.933,47.4354,19.04,100,75,1.54,MG,1680577970
194,sawakin,19.1059,37.3321,21.65,56,49,2.42,SD,1680577970
195,novoorsk,51.381,58.9813,0.36,71,65,3.72,RU,1680577970
196,harper,4.375,-7.7169,25.26,88,100,1.14,LR,1680577970
197,leshukonskoye,64.8989,45.7622,-11.69,91,90,2.26,RU,1680577970
198,kavaratti,10.5669,72.642,27.42,71,100,3.91,IN,1680577970
199,tak bai,6.2595,102.0546,31.15,65,54,1.21,TH,1680577970
200,alyangula,-13.8483,136.4192,31.71,51,25,4.65,AU,1680577970
201,avera,33.194,-82.5271,15.73,89,98,2.0,US,1680577914
202,sterling,39.0062,-77.4286,18.0,57,20,6.17,US,1680577753
203,kumphawapi,17.1087,103.0149,36.01,97,4,4.1,TH,1680577971
204,tadine,-21.55,167.8833,27.79,73,97,3.01,NC,1680577971
205,grand-santi,4.25,-54.3833,21.23,94,64,1.14,GF,1680577971
206,mehamn,71.0357,27.8492,0.97,100,100,10.29,NO,1680577971
207,rock sound,24.9,-76.2,24.86,73,12,5.01,BS,1680577737
208,touros,-5.1989,-35.4608,25.24,82,43,3.21,BR,1680577971
209,priargunsk,50.3691,119.1012,-0.63,23,1,7.53,RU,1680577971
210,tasiilaq,65.6145,-37.6368,-3.91,93,100,3.02,GL,1680577971
211,biak,-0.9131,122.8766,27.78,73,100,0.76,ID,1680577971
212,svetlogorsk,52.6333,29.7333,-1.33,96,100,3.5,BY,1680577971
213,yumen,40.2833,97.2,0.04,28,100,8.97,CN,1680577972
214,leningradskiy,69.3833,178.4167,-21.29,90,10,1.98,RU,1680577972
215,pemangkat,1.1667,108.9667,28.26,71,80,2.69,ID,1680577972
216,hamilton,39.1834,-84.5333,17.97,59,0,5.66,US,1680577772
217,markova,48.6758,24.4138,-2.05,96,100,1.87,UA,1680577972
218,lata,40.1629,-8.3327,11.71,95,100,2.01,PT,1680577972
219,argelia,2.2556,-77.2488,18.72,97,100,0.83,CO,1680577972
220,tamandare,-8.7597,-35.1047,25.28,82,57,1.8,BR,1680577972
221,kaitangata,-46.2817,169.8464,17.18,56,51,2.62,NZ,1680577972
222,narsaq,60.9167,-46.05,6.12,75,93,2.73,GL,1680577972
223,san andres,12.5847,-81.7006,26.34,79,40,9.15,CO,1680577972
224,tshane,-24.0196,21.8684,18.17,35,0,3.98,BW,1680577972
225,beringovskiy,63.05,179.3167,-12.78,88,100,5.37,RU,1680577972
226,mahebourg,-20.4081,57.7,24.03,100,20,1.54,MU,1680577973
227,pangnirtung,66.1451,-65.7125,-19.03,65,20,3.33,CA,1680577973
228,gevrai,19.2667,75.75,27.65,32,10,2.22,IN,1680577973
229,luanda,-8.8368,13.2343,25.7,79,100,2.24,AO,1680577818
230,malnate,45.7908,8.8819,7.04,62,84,2.68,IT,1680577973
231,lompoc,34.6391,-120.4579,9.77,70,0,14.4,US,1680577973
232,bloemfontein,-29.1211,26.214,10.4,74,6,4.35,ZA,1680577973
233,richards bay,-28.783,32.0377,22.48,72,100,6.68,ZA,1680577791
234,namibe,-15.1961,12.1522,23.73,79,40,2.24,AO,1680577775
235,eruwa,7.5333,3.4167,25.09,85,95,2.03,NG,1680577973
236,nioro,13.35,-15.75,23.43,64,3,3.18,GM,1680577973
237,pangai,-19.8,-174.35,26.57,76,4,5.35,TO,1680577973
238,nabire,-3.3667,135.4833,29.9,64,100,1.96,ID,1680577973
239,longyan,25.1072,117.0225,18.94,94,100,1.99,CN,1680577973
240,alingsas,57.9303,12.5335,-0.27,79,99,1.04,SE,1680577974
241,saint anthony,45.0205,-93.218,3.41,73,75,3.6,US,1680577775
242,mahon,39.8885,4.2658,10.31,81,40,3.6,ES,1680577934
243,aklavik,68.2191,-135.0107,-9.43,93,95,4.43,CA,1680577974
244,ballina,-28.8667,153.5667,23.21,76,77,6.42,AU,1680577686
245,nyurba,63.2842,118.3319,-2.3,92,100,4.4,RU,1680577974
246,talnakh,69.4865,88.3972,-24.33,96,100,4.44,RU,1680577974
247,manaus,-3.1019,-60.025,25.28,88,0,1.54,BR,1680577974
248,makakilo city,21.3469,-158.0858,27.18,62,20,6.69,US,1680577974
249,haverfordwest,51.8017,-4.9691,4.77,89,100,4.69,GB,1680577974
250,sumbe,-11.2061,13.8437,26.19,85,100,1.62,AO,1680577974
251,asha,54.9973,57.2722,1.77,96,76,1.79,RU,1680577974
252,pevek,69.7008,170.3133,-19.14,78,100,3.72,RU,1680577974
253,agadez,19.75,10.25,22.93,8,100,3.04,NE,1680577975
254,kangavar,34.5043,47.9653,6.3,76,0,0.67,IR,1680577975
255,khatanga,71.9667,102.5,-29.39,92,100,5.65,RU,1680577975
256,pacific grove,36.6177,-121.9166,9.45,70,40,10.73,US,1680577975
257,gamba,-2.65,10.0,24.44,87,100,1.7,GA,1680577975
258,geraldton,-28.7667,114.6,25.23,57,77,8.23,AU,1680577975
259,port hardy,50.6996,-127.4199,3.1,93,75,2.57,CA,1680577975
260,huaihua,27.5494,109.9592,15.51,94,100,3.08,CN,1680577975
261,ponta do sol,32.6667,-17.1,17.06,68,14,5.27,PT,1680577975
262,ust-barguzin,53.45,108.9833,-4.3,68,89,4.75,RU,1680577975
263,pekan,3.4836,103.3996,29.21,61,100,0.88,MY,1680577975
264,puerto varas,-41.3195,-72.9854,6.12,93,0,1.54,CL,1680577975
265,coxim,-18.5067,-54.76,23.31,75,0,1.6,BR,1680577794
266,senno,59.5336,33.9167,-0.97,99,100,1.82,RU,1680577975
267,vestmanna,62.1564,-7.1664,6.51,100,100,6.69,FO,1680577976
268,mwingi,-0.9344,38.0601,18.22,94,51,1.3,KE,1680577976
269,buin,-33.7333,-70.75,21.52,41,100,1.23,CL,1680577976
270,bubaque,11.2833,-15.8333,25.75,67,0,6.6,GW,1680577976
271,upernavik,72.7868,-56.1549,-29.75,99,30,1.84,GL,1680577976
272,ancud,-41.8697,-73.8203,11.03,94,59,2.21,CL,1680577976
273,umm lajj,25.0213,37.2685,23.91,36,56,2.61,SA,1680577976
274,ayagoz,47.9714,80.4392,1.81,26,0,8.09,KZ,1680577976
275,mar del plata,-38.0023,-57.5575,15.53,90,45,1.54,AR,1680577976
276,qasigiannguit,68.8193,-51.1922,-27.68,100,63,2.09,GL,1680577976
277,comodoro rivadavia,-45.8667,-67.5,16.92,36,0,6.69,AR,1680577682
278,benghazi,32.1167,20.0667,15.99,73,1,11.21,LY,1680577976
279,aloleng,16.1307,119.7824,28.78,66,15,3.58,PH,1680577976
280,kloulklubed,7.0419,134.2556,27.49,78,93,3.63,PW,1680577977
281,quetta,30.199,67.0097,13.27,18,0,0.77,PK,1680577977
282,marsh harbour,26.5412,-77.0636,24.34,74,100,4.42,BS,1680577977
283,saint-joseph,-21.3667,55.6167,24.21,78,99,0.68,RE,1680577977
284,tsabong,-26.0217,22.401,16.36,29,0,4.32,BW,1680577977
285,wuwei,37.9281,102.6414,5.05,52,100,6.38,CN,1680577977
286,ternate,0.8,127.4,29.13,68,98,2.0,ID,1680577977
287,contamana,-7.3333,-75.0167,22.23,98,99,0.43,PE,1680577977
288,itacare,-14.2775,-38.9967,23.39,90,100,4.36,BR,1680577977
289,bethel,41.3712,-73.414,9.2,79,0,2.06,US,1680577769
290,dwarka,22.2394,68.9678,25.41,80,4,4.92,IN,1680577977
291,korla,41.7597,86.1469,1.62,15,0,5.07,CN,1680577977
292,musoma,-1.5,33.8,19.13,89,100,1.88,TZ,1680577977
293,goderich,43.7501,-81.7165,6.62,95,100,5.06,CA,1680577977
294,araouane,18.9048,-3.5265,22.74,9,0,1.62,ML,1680577978
295,peleduy,59.6289,112.7406,-2.57,93,100,6.41,RU,1680577978
296,ilulissat,69.2167,-51.1,-27.53,98,23,1.66,GL,1680577978
297,asau,46.4333,26.4,-0.49,97,100,2.82,RO,1680577978
298,melville,40.7934,-73.4151,10.42,84,0,5.14,US,1680577689
299,petropavlovsk-kamchatskiy,53.0452,158.6483,4.33,42,0,3.0,RU,1680577978
300,ponta delgada,37.7333,-25.6667,13.4,76,20,3.09,PT,1680577978
301,santa cruz,-17.8,-63.1667,23.7,94,75,2.06,BO,1680577978
302,shache,38.4167,77.2406,10.13,18,100,5.41,CN,1680577978
303,la ronge,55.1001,-105.2842,-10.42,95,96,2.71,CA,1680577978
304,buchanan,5.8808,-10.0467,24.91,87,86,2.46,LR,1680577978
305,callaway,30.153,-85.5699,23.33,96,40,4.63,US,1680577978
306,sinnamary,5.3833,-52.95,24.99,82,77,4.07,GF,1680577978
307,paratinga,-12.6906,-43.1842,25.26,57,100,0.82,BR,1680577978
308,alekseyevsk,57.8406,108.3492,-2.41,94,100,6.43,RU,1680577978
309,muriwai beach,-36.8167,174.45,20.53,50,1,3.79,NZ,1680577857
310,alta floresta,-9.8756,-56.0861,20.88,98,70,0.9,BR,1680577979
311,magadan,59.5667,150.8,-2.48,77,28,3.5,RU,1680577979
312,galesong,-5.3166,119.3661,29.01,74,95,3.7,ID,1680577979
313,vizinga,61.0749,50.1031,-1.05,94,100,2.87,RU,1680577979
314,narva-joesuu,59.4589,28.0408,-2.56,89,100,4.62,EE,1680577979
315,maridi,4.9158,29.4742,19.94,79,73,2.64,SS,1680577979
316,byron bay,-28.65,153.6167,23.73,72,80,6.23,AU,1680577959
317,upington,-28.4478,21.2561,13.4,48,2,1.61,ZA,1680577979
318,sao raimundo nonato,-9.0153,-42.6994,22.84,66,73,1.51,BR,1680577979
319,puerto montt,-41.4698,-72.9447,6.46,93,0,1.54,CL,1680577979
320,cassilandia,-19.1133,-51.7342,20.83,87,0,0.91,BR,1680577980
321,sarkand,45.41,79.9186,10.87,26,0,1.34,KZ,1680577980
322,vanimo,-2.6741,141.3028,28.09,76,100,1.64,PG,1680577980
323,severo-kurilsk,50.6789,156.125,1.19,82,47,4.96,RU,1680577980
324,clyde river,70.4692,-68.5914,-24.2,82,2,2.8,CA,1680577980
325,kitami,43.8031,143.8908,15.51,39,100,3.41,JP,1680577980
326,nassjo,57.6531,14.6968,-7.49,91,100,1.07,SE,1680577980
327,hervey bay,-25.2986,152.8535,26.2,60,10,2.84,AU,1680577980
328,leiyang,26.4024,112.8591,24.17,81,100,4.93,CN,1680577980
329,sur,22.5667,59.5289,23.53,58,75,1.25,OM,1680577812
330,bud,39.447,-86.1758,17.01,76,14,4.68,US,1680577980
331,wanaka,-44.7,169.15,18.39,50,19,1.34,NZ,1680577980
332,zhumadian,32.9794,114.0294,9.25,86,100,7.48,CN,1680577899
333,klyuchi,52.2667,79.1667,4.31,40,0,2.82,RU,1680577981
334,tucurui,-3.7661,-49.6725,22.03,98,96,0.43,BR,1680577981
335,labuhan,-6.8844,112.2051,28.51,70,100,2.51,ID,1680577981
336,north bend,43.4065,-124.2243,6.2,75,75,4.12,US,1680577981
337,portland,45.5234,-122.6762,7.27,84,59,3.13,US,1680577906
338,bushehr,28.9684,50.8385,18.05,63,0,3.09,IR,1680577981
339,feicheng,35.2606,117.9675,11.68,97,100,2.48,CN,1680577981
340,narovchat,53.8765,43.6946,6.45,72,94,3.03,RU,1680577981
341,abilene,32.4487,-99.7331,25.15,17,0,4.63,US,1680577769
342,chara,56.9064,118.2631,-5.79,64,80,4.26,RU,1680577981
343,bulls,-40.1667,175.3833,17.9,71,20,2.63,NZ,1680577982
344,takoradi,4.8845,-1.7554,26.26,84,84,2.2,GH,1680577982
345,lacarak,45.0022,19.5686,2.19,66,100,6.8,RS,1680577982
346,norman wells,65.282,-126.8329,-8.97,95,40,0.74,CA,1680577983
347,porto velho,-8.7619,-63.9039,24.03,94,40,0.0,BR,1680577983
348,carnarvon,-24.8667,113.6333,25.13,66,50,5.65,AU,1680577983
349,amot,59.5714,7.9877,-5.45,89,22,2.06,NO,1680577984
350,yulara,-25.2406,130.9889,29.34,34,100,3.28,AU,1680577984
351,ileza,61.0533,43.9002,-0.36,98,100,3.03,RU,1680577985
352,omsukchan,62.5333,155.8,-11.85,67,0,3.17,RU,1680577986
353,dickinson,29.4608,-95.0513,25.05,88,75,4.63,US,1680577873
354,sattahip,12.6664,100.9007,34.72,66,20,5.14,TH,1680577986
355,shu,43.5983,73.7614,9.57,29,100,4.87,KZ,1680577987
356,olinda,-8.0089,-34.8553,25.85,78,40,1.54,BR,1680577987
357,nizhniy kuranakh,58.8353,125.4869,-4.12,94,100,5.65,RU,1680577987
358,mayor pablo lagerenza,-19.9309,-60.7718,25.31,70,73,2.13,PY,1680577988
359,port-gentil,-0.7193,8.7815,27.11,78,100,3.41,GA,1680577988
360,okato,-39.2,173.8833,19.39,100,0,4.12,NZ,1680577989
361,drayton valley,53.2168,-114.9854,-1.8,86,57,2.86,CA,1680577989
362,jansath,29.3333,77.85,23.58,44,99,2.55,IN,1680577989
363,boguchany,58.3814,97.4531,0.46,94,100,2.98,RU,1680577989
364,srandakan,-7.9386,110.2506,28.51,69,85,1.92,ID,1680577989
365,pedernales,18.0384,-71.744,25.45,64,2,2.23,DO,1680577989
366,iqaluit,63.7506,-68.5145,-19.36,81,100,5.31,CA,1680577990
367,necochea,-38.5473,-58.7368,17.06,76,71,3.57,AR,1680577991
368,santarem,-2.4431,-54.7083,24.07,94,0,1.54,BR,1680577727
369,kirakira,-10.4544,161.9205,30.43,68,37,3.13,SB,1680577992
370,xuddur,4.1213,43.8894,24.15,79,46,5.21,SO,1680577992
371,ostrovnoy,68.0531,39.5131,-9.72,89,8,8.94,RU,1680577993
372,pisco,-13.7,-76.2167,24.03,83,20,3.09,PE,1680577993
373,san quintin,30.4833,-115.95,12.1,60,2,11.29,MX,1680577994
374,vila velha,-20.3297,-40.2925,24.97,78,20,2.57,BR,1680577812
375,quzhou,28.9594,118.8686,15.95,97,100,0.89,CN,1680577994
376,ouargaye,11.5033,0.0572,32.39,19,69,2.29,BF,1680577994
377,assiniboia,49.6334,-105.9845,-14.13,99,91,1.89,CA,1680577822
378,ormara,25.2088,64.6357,23.64,59,0,1.54,PK,1680577995
379,muros,42.7762,-9.0603,10.47,87,97,2.81,ES,1680577995
380,mackay,-21.15,149.2,26.68,75,21,4.43,AU,1680577996
381,coihaique,-45.5752,-72.0662,12.34,76,100,1.54,CL,1680577934
382,kolda,12.8833,-14.95,23.7,47,0,1.79,SN,1680577996
383,paranaiba,-19.6772,-51.1908,21.47,80,0,1.73,BR,1680577880
384,nelspruit,-25.4745,30.9703,18.45,83,9,0.6,ZA,1680577996
385,tilichiki,60.4667,166.1,-9.68,89,100,5.07,RU,1680577997
386,hay river,60.8156,-115.7999,-15.44,97,67,0.79,CA,1680577998
387,nicoya,10.1483,-85.452,25.96,71,9,4.49,CR,1680577999
388,mao,39.8885,4.2658,10.31,81,40,3.6,ES,1680578000
389,colesberg,-30.72,25.0972,10.12,82,13,2.43,ZA,1680578001
390,chumikan,54.7183,135.315,-1.46,56,5,10.06,RU,1680578001
391,srednekolymsk,67.45,153.6833,-8.59,66,9,2.67,RU,1680578001
392,naifaru,5.4444,73.3657,27.46,72,11,3.15,MV,1680578001
393,sangar,63.9242,127.4739,-5.3,81,99,2.12,RU,1680578002
394,wamba,8.9333,8.6,26.12,48,100,0.62,NG,1680578002
395,ust-kuyga,70.0167,135.6,-7.81,79,98,0.56,RU,1680578002
396,gravelbourg,49.8834,-106.5512,-13.12,99,93,2.22,CA,1680578003
397,grafenhainichen,51.7333,12.45,0.35,80,12,2.18,DE,1680578003
398,conde,-7.2597,-34.9075,24.7,88,20,2.06,BR,1680577940
399,peniche,39.3558,-9.3811,13.95,80,100,8.3,PT,1680577787
400,paso de patria,-27.2454,-58.5454,25.6,44,27,2.73,AR,1680578004
401,laguna,38.421,-121.4238,12.07,32,40,3.6,US,1680578004
402,izmit,40.7669,29.9169,13.99,58,0,2.06,TR,1680578004
403,hargeysa,9.56,44.065,20.49,78,15,1.29,SO,1680578004
404,santa cruz del sur,20.7147,-77.9956,24.16,71,47,5.76,CU,1680578004
405,vila franca do campo,37.7167,-25.4333,13.23,79,73,2.31,PT,1680578005
406,roma,43.2128,-75.4557,8.08,82,100,2.57,US,1680578006
407,outlook,51.5001,-107.0513,-11.54,94,100,2.23,CA,1680578006
408,kiunga,-6.1219,141.2906,29.98,62,99,1.97,PG,1680578006
409,lamu,-2.2717,40.902,25.12,79,68,3.39,KE,1680578007
410,katobu,-4.9408,122.5276,29.6,66,100,1.28,ID,1680578007
411,marabba,12.35,32.1833,26.28,15,32,3.49,SD,1680578007
412,shelbyville,35.4834,-86.4603,16.12,45,40,3.09,US,1680578007
413,bianzhuang,34.8486,118.0447,12.36,98,100,2.23,CN,1680578007
414,honningsvag,70.9821,25.9704,2.86,81,75,10.29,NO,1680578008
415,mustasaari,63.1142,21.6822,-15.03,92,0,0.51,FI,1680577975
416,oranjestad,12.524,-70.027,26.62,85,0,4.02,AW,1680578008
417,dunedin,-45.8742,170.5036,16.33,63,53,2.34,NZ,1680578009
418,oranjemund,-28.55,16.4333,14.6,85,0,3.96,NA,1680577978
419,barrow,71.2906,-156.7887,-15.99,72,75,6.17,US,1680577859
420,kashi,39.4547,75.9797,8.12,16,94,4.35,CN,1680578010
421,paamiut,61.994,-49.6678,0.44,77,100,0.87,GL,1680578010
422,rocha,-34.4833,-54.3333,16.34,91,100,0.36,UY,1680577854
423,tanout,14.9709,8.8879,22.8,7,15,3.74,NE,1680578011
424,fengcheng,40.4536,124.0717,16.3,38,100,0.99,CN,1680578011
425,walvis bay,-22.9575,14.5053,16.55,78,0,2.15,NA,1680577977
426,abalak,58.1286,68.5944,1.85,91,95,2.67,RU,1680578011
427,kamenka,51.3223,42.7678,7.65,91,80,3.17,RU,1680578012
428,joao neiva,-19.7575,-40.3856,20.61,82,68,1.36,BR,1680578012
429,lupiro,-8.3833,36.6667,21.93,96,100,0.65,TZ,1680578012
430,alofi,-19.0595,-169.9187,26.71,79,37,7.06,NU,1680578013
431,tessalit,20.1986,1.0114,24.14,7,0,2.2,ML,1680578013
432,constitucion,-35.3333,-72.4167,14.15,64,2,4.56,CL,1680578014
433,dubbo,-32.25,148.6167,25.07,41,40,3.09,AU,1680578014
434,road town,18.4167,-64.6167,25.05,78,4,8.21,VG,1680578014
435,koumac,-20.5667,164.2833,29.72,65,90,2.52,NC,1680578014
436,katoro,-3.0203,31.8958,16.56,95,100,0.56,TZ,1680578015
437,stanislav,46.5691,32.1478,5.8,92,100,3.14,UA,1680578015
438,washington,47.5001,-120.5015,6.22,59,11,2.76,US,1680577835
439,danielskuil,-28.1887,23.5395,10.15,74,1,3.77,ZA,1680578016
440,barybino,55.2677,37.8933,6.18,86,0,3.0,RU,1680578016
441,serebryanyy bor,56.8,124.8,-5.81,90,100,7.67,RU,1680578016
442,rawson,-43.3002,-65.1023,14.98,67,2,4.57,AR,1680578016
443,kungurtug,50.5994,97.5228,-8.43,72,23,0.61,RU,1680578017
444,mayumba,-3.432,10.6554,25.22,85,100,1.54,GA,1680578017
445,burnie,-41.0667,145.9167,19.14,57,100,3.58,AU,1680578017
446,galveston,29.3669,-94.9669,25.06,89,100,6.69,US,1680578017
447,saint-paul,-21.0096,55.2707,25.06,90,88,0.45,RE,1680578017
448,istisu,40.9457,48.0738,0.37,73,45,1.57,AZ,1680578018
449,fomboni,-12.28,43.7425,28.36,75,100,5.27,KM,1680578018
450,bambous virieux,-20.3428,57.7575,24.01,100,20,1.54,MU,1680578018
451,poronaysk,49.2167,143.1167,8.2,71,100,3.58,RU,1680578018
452,kahului,20.8947,-156.47,27.01,71,40,9.26,US,1680578018
453,northam,51.0333,-4.2167,3.12,90,40,3.43,GB,1680577912
454,turukhansk,65.8167,87.9833,-23.01,88,35,3.23,RU,1680578018
455,ulaangom,49.9811,92.0667,-11.5,73,82,2.46,MN,1680578018
456,lashio,22.9333,97.75,27.93,29,28,1.23,MM,1680578019
457,shenkursk,62.1091,42.896,-1.75,97,100,2.52,RU,1680578019
458,haukipudas,65.1765,25.3523,-10.05,98,70,2.47,FI,1680578019
459,kapchorwa,1.3965,34.4509,13.29,82,100,1.2,UG,1680578019
460,waitati,-45.75,170.5667,17.14,56,75,0.55,NZ,1680578019
461,concepcion del uruguay,-32.4825,-58.2372,17.77,92,95,3.38,AR,1680577843
462,port hedland,-20.3167,118.5667,33.03,62,43,5.14,AU,1680578019
463,lahan,26.7296,86.4951,28.29,34,4,3.73,NP,1680578019
464,tchibanga,-2.85,11.0333,21.64,96,100,0.47,GA,1680578019
465,lavrentiya,65.5833,-171.0,-16.29,88,68,3.07,RU,1680578019
466,high level,58.5169,-117.136,-5.3,95,99,0.24,CA,1680577801
467,lakes entrance,-37.8811,147.981,21.4,47,17,2.68,AU,1680578020
468,plettenberg bay,-34.0527,23.3716,15.15,81,84,2.44,ZA,1680578020
469,catuday,16.2923,119.8062,27.74,67,11,2.03,PH,1680578020
470,jieshi,22.8134,115.8257,23.22,82,98,5.52,CN,1680578020
471,abha,18.2164,42.5053,13.14,88,0,3.09,SA,1680578020
472,half moon bay,37.4636,-122.4286,10.03,73,20,11.32,US,1680578020
473,athens,37.9795,23.7162,13.71,86,75,3.58,GR,1680577907
474,mogadishu,2.0371,45.3438,27.65,77,19,4.97,SO,1680578020
475,moree,-29.4667,149.85,27.02,35,0,2.87,AU,1680578021
476,brandfort,-28.7001,26.4597,10.36,81,0,3.23,ZA,1680578021
477,chaiyaphum,15.75,102.0,34.99,34,7,4.85,TH,1680578021
478,kurilsk,45.2333,147.8833,4.5,55,67,1.93,RU,1680578021
479,azul,-36.777,-59.8585,14.4,88,77,1.29,AR,1680577956
480,luena,-11.7833,19.9167,16.27,97,100,1.39,AO,1680578021
481,san luis,-33.295,-66.3356,18.47,75,100,4.55,AR,1680577811
482,blagoyevo,63.3667,47.9167,-8.74,87,96,3.04,RU,1680578021
483,guerrero negro,27.9769,-114.0611,13.69,69,5,10.73,MX,1680577848
484,mahibadhoo,3.7833,72.9667,27.59,70,7,1.11,MV,1680578021
485,husavik,66.0449,-17.3389,2.43,97,96,5.13,IS,1680578021
486,batemans bay,-35.7167,150.1833,21.72,46,11,3.91,AU,1680578021
487,barraute,48.4335,-77.6328,-3.85,94,100,3.91,CA,1680578021
488,salalah,17.0151,54.0924,29.05,21,20,4.63,OM,1680578022
489,chapais,49.7834,-74.8492,-5.12,94,98,4.35,CA,1680578022
490,solenzo,12.1833,-4.0833,27.19,10,2,0.79,BF,1680578022
491,acarau,-2.8856,-40.12,23.79,89,92,0.84,BR,1680578022
492,mineros,-17.1167,-63.2333,23.73,90,100,1.46,BO,1680578022
493,fabriano,43.3406,12.9073,7.4,78,95,4.16,IT,1680578022
494,aquin,18.2833,-73.4,24.81,77,41,1.01,HT,1680578023
495,yerbogachen,61.2767,108.0108,-4.61,83,99,7.12,RU,1680578023
496,nuuk,64.1835,-51.7216,0.34,55,85,6.69,GL,1680578023
497,edinet,48.1681,27.305,2.25,89,100,4.08,MD,1680578023
498,dharchula,29.85,80.5333,18.63,44,37,0.98,IN,1680578023
499,osoyoos,49.0331,-119.4524,2.55,72,52,0.5,CA,1680578023
500,przasnysz,53.0191,20.8803,-2.01,80,27,3.56,PL,1680578023
501,whitley bay,55.0397,-1.4471,2.82,87,0,1.54,GB,1680578023
502,oistins,13.0667,-59.5333,26.05,73,40,6.69,BB,1680577757
503,kamaishi,39.2667,141.8833,13.89,50,0,3.27,JP,1680578023
504,impfondo,1.6381,18.0667,21.6,97,100,1.59,CG,1680578023
505,tazmalt,36.3868,4.3989,7.31,89,74,0.92,DZ,1680578023
506,cervo,43.6702,-7.4101,10.78,80,98,7.85,ES,1680578023
507,south venice,27.0531,-82.4243,24.43,94,0,1.54,US,1680578023
508,urumqi,43.801,87.6005,0.53,17,0,1.0,CN,1680578024
509,osakarovka,50.565,72.5692,2.64,45,12,4.35,KZ,1680578024
510,lisakovsk,52.5369,62.4936,1.59,79,43,2.8,KZ,1680578024
511,chhatapur,26.2167,87.0167,27.61,38,2,4.55,IN,1680578024
512,grindavik,63.8424,-22.4338,8.26,93,100,12.35,IS,1680578024
513,beloha,-25.1667,45.05,20.94,92,0,2.46,MG,1680578024
514,vrangel,42.7297,133.0839,7.52,75,100,3.06,RU,1680578024
515,luderitz,-26.6481,15.1594,17.27,61,0,6.32,NA,1680577977
516,ust-nera,64.5667,143.2,-11.81,89,100,2.94,RU,1680578024
517,san vicente,-26.6167,-54.1333,18.11,66,6,0.78,AR,1680578024
518,changli,39.7042,119.1506,10.18,37,100,10.43,CN,1680578024
519,usinsk,65.9939,57.5281,-17.1,96,9,1.57,RU,1680578024
520,bagan,54.1001,77.6646,3.12,58,7,3.64,RU,1680578025
521,hanna,51.6334,-111.9018,-5.05,90,100,2.35,CA,1680578025
522,svetlyy,54.675,20.1347,1.03,65,10,4.67,RU,1680578025
523,lazaro cardenas,17.9583,-102.2,24.65,77,0,2.68,MX,1680578025
524,chimore,-16.9833,-65.1333,22.18,98,100,0.48,BO,1680578025
525,vestmannaeyjar,63.4427,-20.2734,7.83,90,100,11.75,IS,1680578025
526,pietarsaari,63.65,22.6833,-10.62,81,77,2.2,FI,1680578025
527,aykhal,66.0,111.5,-19.27,96,100,7.7,RU,1680578025
528,saint-augustin,51.226,-58.6502,-2.13,83,71,1.81,CA,1680578025
529,narkevychi,49.5172,26.6418,-1.02,91,100,4.67,UA,1680578025
530,isiro,2.7739,27.616,18.74,98,99,1.92,CD,1680578025
531,clinton,42.587,-82.9199,9.56,90,100,3.6,US,1680577963
532,bilibino,68.0546,166.4372,-17.02,66,100,1.26,RU,1680577841
533,villazon,-22.0866,-65.5942,10.69,68,99,1.83,BO,1680578026
534,lander,42.833,-108.7307,-3.55,89,100,2.57,US,1680578026
535,skibbereen,51.55,-9.2667,9.5,92,100,5.45,IE,1680578026
536,baykit,61.67,96.37,-5.22,84,100,4.95,RU,1680578026
537,havre-saint-pierre,50.2334,-63.5986,-2.53,77,100,2.45,CA,1680578026
538,otradnoye,59.7775,30.8181,-1.69,97,100,3.04,RU,1680578026
539,aktash,50.3,87.7333,-9.69,53,13,1.86,RU,1680578026
540,ranot,7.7777,100.3213,29.15,64,32,1.29,TH,1680578026
541,el alto,-4.2714,-81.2147,25.81,80,100,2.78,PE,1680578026
542,saint-francois,46.4154,3.9054,2.04,80,0,2.57,FR,1680578026
543,yashkul,46.1711,45.3435,10.81,73,59,1.41,RU,1680578027
544,yemelyanovo,56.1681,92.6767,0.6,69,40,7.0,RU,1680578027
545,kanganpur,30.7663,74.1231,19.61,66,2,1.57,PK,1680578027
546,hauterive,46.0901,3.4459,2.42,96,7,1.79,FR,1680578027
547,minas,-34.3759,-55.2377,15.65,87,98,0.89,UY,1680578027
548,bure,10.7,37.0667,15.36,54,71,1.3,ET,1680578027
549,tautira,-17.7333,-149.15,27.51,74,65,1.35,PF,1680578027
550,collie,-33.3667,116.15,21.61,39,15,3.2,AU,1680578027
551,kendari,-3.945,122.4989,30.42,63,100,1.43,ID,1680578027
552,lagoa,39.05,-27.9833,14.55,69,100,4.73,PT,1680578028
553,bandarbeyla,9.4942,50.8122,27.55,70,100,4.34,SO,1680578028
554,zhuanghe,39.7008,122.9911,14.04,44,100,5.19,CN,1680578028
555,iquitos,-3.7481,-73.2472,24.02,94,75,0.0,PE,1680578028
556,xining,36.6167,101.7667,4.45,59,100,2.03,CN,1680577961
557,nhulunbuy,-12.2333,136.7667,32.34,66,40,6.17,AU,1680577989
558,krasnoselkup,65.7,82.4667,-19.97,85,84,6.57,RU,1680578028
559,lichinga,-13.3128,35.2406,14.1,98,20,1.75,MZ,1680578028
560,sao felix do xingu,-6.6447,-51.995,22.36,95,99,0.47,BR,1680578028
